[
  {
    "routeNumber": 1,
    "name": "Ratnapark to Kirtipur",
    "color": "red",
    "stops": [
      { "name": "Ratnapark", "lat": 27.702561742152824, "lon": 85.31361099960553 },
      { "name": "Tudikhel Bus Stop", "lat": 27.70202397, "lon": 85.31654579 },
      { "name": "Bhirikuti Mandap Stop", "lat": 27.70090581, "lon": 85.31660836 },
      { "name": "Sahid Gate Bus Stop", "lat": 27.69966749, "lon": 85.314113 },
      { "name": "Tripureshwar Bus Stop", "lat": 27.6938922, "lon": 85.31299833 },
      { "name": "Teku Bus Stop", "lat": 27.69615485, "lon": 85.30688154 },
      { "name": "Kalimati Bus Stop (Balkhu)", "lat": 27.69826685, "lon": 85.29961261 },
      { "name": "Balkhu Wari", "lat": 27.68449578, "lon": 85.29740378 },
      { "name": "Kumari Club (Dashinkali)", "lat": 27.68213001, "lon": 85.29861534 },
      { "name": "TU Gate (Dashinkali)", "lat": 27.67880186, "lon": 85.29728255 },
      { "name": "Nayabato (Dashinkali)", "lat": 27.67603301, "lon": 85.29397839 },
      { "name": "Nayabato (Kirtipur)", "lat": 27.67632523, "lon": 85.29353559 },
      { "name": "Ayurbedhik Hospital Stop", "lat": 27.67572751, "lon": 85.28716144 },
      { "name": "Tin Kune Kirtipur", "lat": 27.67656224, "lon": 85.28358555 },
      { "name": "Nayabazar Gate", "lat": 27.67702254, "lon": 85.28189095 },
      { "name": "Panga Dobato Stop", "lat": 27.67463783, "lon": 85.28025712 },
      { "name": "Nagau Dobato Stop", "lat": 27.67482353, "lon": 85.27761347 },
      { "name": "Telecome Stop", "lat": 27.67584611, "lon": 85.27647569 },
      { "name": "Khasi Bazar Stop", "lat": 27.67748367, "lon": 85.27513678 },
      { "name": "Dhalpa Chowk", "lat": 27.67805296, "lon": 85.27358028 },
      { "name": "Devdhoka Stop", "lat": 27.68236274, "lon": 85.27279479 },
      { "name": "Dev Bus Stop", "lat": 27.68114377, "lon": 85.27552166 },
      { "name": "Bishnudevi Hospital Bus Stop", "lat": 27.68058981, "lon": 85.27636313 },
      { "name": "Nayabazar Gate", "lat": 27.67702254, "lon": 85.28189095 },
      { "name": "Tin Kune (Nayabato)", "lat": 27.67652259, "lon": 85.28378339 },
      { "name": "Ayurbedhik Hospital (Nayabato)", "lat": 27.67580912, "lon": 85.28733057 },
      { "name": "Nayabato (Balkhu)", "lat": 27.67640093, "lon": 85.29430219 },
      { "name": "TU Gate (Balkhu)", "lat": 27.67886163, "lon": 85.2971644 },
      { "name": "Kumari Club (Balkhu)", "lat": 27.682138, "lon": 85.29846038 },
      { "name": "Balkhu Petro Stop", "lat": 27.68434281, "lon": 85.29732339 },
      { "name": "Balkhu Pari Stop", "lat": 27.68517157, "lon": 85.29817996 },
      { "name": "Kalimati Bus Stop (Teku)", "lat": 27.69805451, "lon": 85.29930602 },
      { "name": "Teku Stop", "lat": 27.69629718, "lon": 85.30699188 },
      { "name": "Tripureshwar (RNAC)", "lat": 27.69403388, "lon": 85.31303754 },
      { "name": "Ratnapark", "lat": 27.702561742152824, "lon": 85.31361099960553 }
    ]
  },
  {
    "routeNumber": 99,
    "name": "Nayabato (Balkhu) to Kalanki (Bafal)",
    "color": "orange",
    "stops": [
      { "name": "Nayabato (Balkhu)", "lat": 27.67640093, "lon": 85.29430219 },
      { "name": "TU Gate (Balkhu)", "lat": 27.67886163, "lon": 85.2971644 },
      { "name": "Kumari Club (Balkhu)", "lat": 27.682138, "lon": 85.29846038 },
      { "name": "Balkhu Petro Stop", "lat": 27.68434281, "lon": 85.29732339 },
      {
        "name": "Balkhu Bus Stop (Kalanki)",
        "lat": 27.684794,
        "lon": 85.296967
      },
      {
        "name": "Sita Petrol Pump Stop (Kalanki)",
        "lat": 27.688301,
        "lon": 85.286635
      },
      { "name": "Kalanki (Bafal)", "lat": 27.69394974, "lon": 85.28146875 }
    ]
  }
]