[
  {
    "routeNumber": 1,
    "name": "Ratnapark and Kirtipur",
    "color": "red",
    "stops": [
      {
        "name": "Ratnapark",
        "lat": 27.702561742152824,
        "lon": 85.31361099960553
      },
      { "name": "Tudikhel Bus Stop", "lat": 27.70202397, "lon": 85.31654579 },
      {
        "name": "Bhirikuti Mandap Stop",
        "lat": 27.70090581,
        "lon": 85.31660836
      },
      { "name": "Sahid Gate Bus Stop", "lat": 27.69966749, "lon": 85.314113 },
      {
        "name": "Tripureshwar Bus Stop",
        "lat": 27.6938922,
        "lon": 85.31299833
      },
      { "name": "Teku Bus Stop", "lat": 27.69615485, "lon": 85.30688154 },
      {
        "name": "Kalimati Bus Stop (Balkhu)",
        "lat": 27.69826685,
        "lon": 85.29961261
      },
      { "name": "Balkhu Stop", "lat": 27.685911, "lon": 85.298217 },
      { "name": "Balkhu Wari", "lat": 27.68449578, "lon": 85.29740378 },
      {
        "name": "Kumari Club (Dashinkali)",
        "lat": 27.68213001,
        "lon": 85.29861534
      },
      {
        "name": "TU Gate (Dashinkali)",
        "lat": 27.67880186,
        "lon": 85.29728255
      },
      {
        "name": "Nayabato (Dashinkali)",
        "lat": 27.67603301,
        "lon": 85.29397839
      },
      { "name": "Nayabato (Kirtipur)", "lat": 27.67632523, "lon": 85.29353559 },
      {
        "name": "Ayurbedhik Hospital Stop",
        "lat": 27.67572751,
        "lon": 85.28716144
      },
      { "name": "Tin Kune Kirtipur", "lat": 27.67656224, "lon": 85.28358555 },
      { "name": "Nayabazar Gate", "lat": 27.67702254, "lon": 85.28189095 },
      { "name": "Panga Dobato Stop", "lat": 27.67463783, "lon": 85.28025712 },
      { "name": "Nagau Dobato Stop", "lat": 27.67482353, "lon": 85.27761347 },
      { "name": "Telecome Stop", "lat": 27.67584611, "lon": 85.27647569 },
      { "name": "Khasi Bazar Stop", "lat": 27.67748367, "lon": 85.27513678 },
      { "name": "Dhalpa Chowk", "lat": 27.67805296, "lon": 85.27358028 },
      { "name": "Devdhoka Stop", "lat": 27.68236274, "lon": 85.27279479 },
      { "name": "Dev Bus Stop", "lat": 27.68114377, "lon": 85.27552166 },
      {
        "name": "Bishnudevi Hospital Bus Stop",
        "lat": 27.68058981,
        "lon": 85.27636313
      },
      { "name": "Nayabazar Gate", "lat": 27.67702254, "lon": 85.28189095 },
      { "name": "Tin Kune (Nayabato)", "lat": 27.67652259, "lon": 85.28378339 },
      {
        "name": "Ayurbedhik Hospital (Nayabato)",
        "lat": 27.67580912,
        "lon": 85.28733057
      },
      { "name": "Nayabato (Balkhu)", "lat": 27.67640093, "lon": 85.29430219 },
      { "name": "TU Gate (Balkhu)", "lat": 27.67886163, "lon": 85.2971644 },
      { "name": "Kumari Club (Balkhu)", "lat": 27.682138, "lon": 85.29846038 },
      { "name": "Balkhu Petro Stop", "lat": 27.68434281, "lon": 85.29732339 },
      { "name": "Balkhu Pari Stop", "lat": 27.68517157, "lon": 85.29817996 },
      {
        "name": "Kalimati Bus Stop (Teku)",
        "lat": 27.69805451,
        "lon": 85.29930602
      },
      {
        "name": "Kalimati (Vegetable Market)",
        "lat": 27.69841335,
        "lon": 85.29935658
      },
      { "name": "Teku Stop", "lat": 27.69629718, "lon": 85.30699188 },
      { "name": "Tripureshwar (RNAC)", "lat": 27.69403388, "lon": 85.31303754 },
      {
        "name": "Ratnapark",
        "lat": 27.702561742152824,
        "lon": 85.31361099960553
      }
    ]
  },
  {
    "routeNumber": 2,
    "name": "Kirtipur and Lagankhel",
    "color": "green",
    "stops": [
      { "name": "Panga Dobato Stop", "lat": 27.67463783, "lon": 85.28025712 },
      { "name": "Nagau Dobato Stop", "lat": 27.67482353, "lon": 85.27761347 },
      { "name": "Telecome Stop", "lat": 27.67584611, "lon": 85.27647569 },
      { "name": "Khasi Bazar Stop", "lat": 27.67748367, "lon": 85.27513678 },
      { "name": "Dhalpa Chowk", "lat": 27.67805296, "lon": 85.27358028 },
      { "name": "Devdhoka Stop", "lat": 27.68236274, "lon": 85.27279479 },
      { "name": "Dev Bus Stop", "lat": 27.68114377, "lon": 85.27552166 },
      {
        "name": "Bishnudevi Hospital Bus Stop",
        "lat": 27.68058981,
        "lon": 85.27636313
      },
      { "name": "Nayabazar Gate", "lat": 27.67702254, "lon": 85.28189095 },
      { "name": "Tin Kune (Nayabato)", "lat": 27.67652259, "lon": 85.28378339 },
      {
        "name": "Ayurbedhik Hospital (Nayabato)",
        "lat": 27.67580912,
        "lon": 85.28733057
      },
      { "name": "Nayabato (Balkhu)", "lat": 27.67640093, "lon": 85.29430219 },
      { "name": "TU Gate (Balkhu)", "lat": 27.67886163, "lon": 85.2971644 },
      { "name": "Kumari Club (Balkhu)", "lat": 27.682138, "lon": 85.29846038 },
      { "name": "Balkhu Petro Stop", "lat": 27.68434281, "lon": 85.29732339 },
      {
        "name": "Balkhu Bus Stop (Sanepa)",
        "lat": 27.68489845,
        "lon": 85.29861065
      },
      {
        "name": "Sanepa Bus Stop (Chakrapath)",
        "lat": 27.68440202,
        "lon": 85.30191732
      },
      {
        "name": "Star Hospital Bus Stop (Ekantakuna)",
        "lat": 27.68119825,
        "lon": 85.30249048
      },
      {
        "name": "Ekantakuna Bus Stop (Kusunti)",
        "lat": 27.66803668,
        "lon": 85.30720186
      },
      { "name": "Kusunti Bus Stop", "lat": 27.66541125, "lon": 85.31323568 },
      { "name": "Thasikhel Stop", "lat": 27.66295649, "lon": 85.31659643 },
      { "name": "Mahalaxmi Stop", "lat": 27.66159, "lon": 85.318181 },
      { "name": "Talchikhela Stop", "lat": 27.65932183, "lon": 85.32110305 },
      { "name": "Tikabhairav", "lat": 27.65807135, "lon": 85.3228192 },
      {
        "name": "Satobato Stop (Lagankhel)",
        "lat": 27.658542,
        "lon": 85.324158
      },
      {
        "name": "Patan Industry Stop (Lagankhel)",
        "lat": 27.66247727,
        "lon": 85.32384489
      },
      { "name": "Lagankhel", "lat": 27.66729968, "lon": 85.3231659 },
      {
        "name": "Mahalaxmi Bus Stop (Ekantakuna)",
        "lat": 27.66147417,
        "lon": 85.31792641
      },
      { "name": "Thasikhel Chowk", "lat": 27.66277965, "lon": 85.31623568 },
      {
        "name": "Kusunti Bus Stop (Sanepa)",
        "lat": 27.66427832,
        "lon": 85.31438435
      },
      {
        "name": "Ekantakuna Bus Stop (Balkhu)",
        "lat": 27.66678831,
        "lon": 85.30784892
      },
      {
        "name": "Star Hospital Bus Stop (Balkhu)",
        "lat": 27.6812033,
        "lon": 85.30209858
      },
      {
        "name": "Sanepa Bus Stop (Balkhu)",
        "lat": 27.68426962,
        "lon": 85.30127631
      },
      { "name": "Balkhu Wari", "lat": 27.68449578, "lon": 85.29740378 },
      {
        "name": "Kumari Club (Dashinkali)",
        "lat": 27.68213001,
        "lon": 85.29861534
      },
      {
        "name": "TU Gate (Dashinkali)",
        "lat": 27.67880186,
        "lon": 85.29728255
      },
      {
        "name": "Nayabato (Dashinkali)",
        "lat": 27.67603301,
        "lon": 85.29397839
      },
      { "name": "Nayabato (Kirtipur)", "lat": 27.67632523, "lon": 85.29353559 },
      {
        "name": "Ayurbedhik Hospital Stop",
        "lat": 27.67572751,
        "lon": 85.28716144
      },
      { "name": "Tin Kune Kirtipur", "lat": 27.67656224, "lon": 85.28358555 },
      { "name": "Nayabazar Gate", "lat": 27.67702254, "lon": 85.28189095 },
      { "name": "Panga Dobato Stop", "lat": 27.67463783, "lon": 85.28025712 }
    ]
  },
  {
    "routeNumber": 3,
    "name": "Chabahil and Ratnapark",
    "color": "purple",
    "stops": [
      [
        { "name": "Chabahil Stop", "lat": 27.71694003, "lon": 85.34670778 },
        { "name": "Mitra Park Stop", "lat": 27.71332146, "lon": 85.34558723 },
        { "name": "Bageshwari Stop", "lat": 27.710407, "lon": 85.34430516 },
        { "name": "Gaushala Stop", "lat": 27.70758817, "lon": 85.34399789 },
        { "name": "Bimansthal", "lat": 27.7010368, "lon": 85.35338553 },
        {
          "name": "Sinamangal Bus Stop",
          "lat": 27.69531482,
          "lon": 85.35515246
        },
        {
          "name": "Tin Kune Madanbhandari",
          "lat": 27.68588261,
          "lon": 85.34560775
        },
        {
          "name": "Min Bhawan Bus Stop",
          "lat": 27.68739459,
          "lon": 85.33861347
        },
        {
          "name": "New Baneshwor Bus Stop",
          "lat": 27.68790483,
          "lon": 85.33635658
        },
        {
          "name": "Babar Mahal Bus Stand",
          "lat": 27.69206985,
          "lon": 85.3244531
        },
        {
          "name": "Maitighar Bus Stand",
          "lat": 27.69351677,
          "lon": 85.32135013
        },
        {
          "name": "Putalisakad Bus Stand",
          "lat": 27.69668484,
          "lon": 85.32108318
        },
        {
          "name": "Singha Durbar Bus Stand",
          "lat": 27.69745072,
          "lon": 85.32126599
        },
        {
          "name": "Ratnapark",
          "lat": 27.702561742152824,
          "lon": 85.31361099960553
        },
        { "name": "Tudikhel Bus Stop", "lat": 27.70202397, "lon": 85.31654579 },
        {
          "name": "Bhirikuti Mandap Stop",
          "lat": 27.70090581,
          "lon": 85.31660836
        },
        {
          "name": "Singha Durbar Bus Stop",
          "lat": 27.69743159,
          "lon": 85.32145722
        },
        {
          "name": "Putalisadak Bus Stop",
          "lat": 27.69665069,
          "lon": 85.32125097
        },
        { "name": "Mitighar Bus Stop", "lat": 27.69382748, "lon": 85.32134064 },
        {
          "name": "Babar Mahal Bus Stop",
          "lat": 27.69231276,
          "lon": 85.32465933
        },
        {
          "name": "New Baneshwor Bus Stand",
          "lat": 27.68858838,
          "lon": 85.33471354
        },
        {
          "name": "New Baneshwor Tower",
          "lat": 27.69038171,
          "lon": 85.33583298
        },
        { "name": "Gaushala", "lat": 27.70822133, "lon": 85.34345273 },
        {
          "name": "Jay Bageshwari Stop",
          "lat": 27.71051448,
          "lon": 85.34422342
        },
        { "name": "Mitrapark Stand", "lat": 27.71326775, "lon": 85.34544178 },
        {
          "name": "Chabahil Bus Stand",
          "lat": 27.71746188,
          "lon": 85.34655954
        },
        { "name": "Chabahil Stop", "lat": 27.71694003, "lon": 85.34670778 }
      ]
    ]
  },
  {
    "routeNumber": 4,
    "name": "Chabahil and Gongabu",
    "color": "orange",
    "stops": [
      { "name": "Chabahil Bus Stand", "lat": 27.71746188, "lon": 85.34655954 },
      { "name": "Dhumbahari Bus Stop", "lat": 27.73196399, "lon": 85.34405293 },
      {
        "name": "Chapal Karkhana Bus Stop",
        "lat": 27.73464331,
        "lon": 85.34240091
      },
      {
        "name": "Narayan Gopal Bus Stop",
        "lat": 27.7400993,
        "lon": 85.33670501
      },
      { "name": "Sajha Bus Stop", "lat": 27.74190867, "lon": 85.33333677 },
      { "name": "Basundhara Bus Stop", "lat": 27.74205064, "lon": 85.3323138 },
      {
        "name": "Basundhara Chauki Bus Stop",
        "lat": 27.7379396,
        "lon": 85.32505741
      },
      {
        "name": "Taalim Kendram Bus Stop",
        "lat": 27.73609739,
        "lon": 85.32201583
      },
      { "name": "Samakhusi Bus Stop", "lat": 27.73506556, "lon": 85.31815295 },
      { "name": "Gongabu Bus Stop", "lat": 27.734882, "lon": 85.3145742 },
      {
        "name": "Gongabu New Bus Park",
        "lat": 27.73484845,
        "lon": 85.30819588
      },
      {
        "name": "Macha Pokhari Bus Stop",
        "lat": 27.73513802,
        "lon": 85.30598712
      },
      { "name": "Balaju Bus Stop", "lat": 27.72729611, "lon": 85.30502877 },
      { "name": "Banasthali Bus Stop", "lat": 27.7248724, "lon": 85.29827382 },
      {
        "name": "Dhungedhara Bus Stop",
        "lat": 27.72330157,
        "lon": 85.29464409
      },
      {
        "name": "Sano Bharyang Bus Stop",
        "lat": 27.72064103,
        "lon": 85.2891391
      },
      { "name": "Swayambu Bus Stop", "lat": 27.71663074, "lon": 85.28370899 },
      { "name": "Sano Bus Stop", "lat": 27.70734452, "lon": 85.28262391 },
      {
        "name": "Soaltee Dobato Bus Stop",
        "lat": 27.70433267,
        "lon": 85.2822554
      },
      { "name": "Bafal Bus Stop", "lat": 27.7013995, "lon": 85.28193192 },
      { "name": "Kalanki Stop", "lat": 27.6932356, "lon": 85.28117994 },
      {
        "name": "Sita Petrol Pump Stop (Balkhu)",
        "lat": 27.688497,
        "lon": 85.2868416
      },
      {
        "name": "Balkhu Bus Stop (Sanepa)",
        "lat": 27.68489845,
        "lon": 85.29861065
      },
      {
        "name": "Sanepa Bus Stop (Chakrapath)",
        "lat": 27.68440202,
        "lon": 85.30191732
      },
      {
        "name": "Star Hospital Bus Stop (Ekantakuna)",
        "lat": 27.68119825,
        "lon": 85.30249048
      },
      {
        "name": "Ekantakuna Bus Stop (Kusunti)",
        "lat": 27.66803668,
        "lon": 85.30720186
      },
      { "name": "Kusunti Bus Stop", "lat": 27.66541125, "lon": 85.31323568 },
      { "name": "Thasikhel Stop", "lat": 27.66295649, "lon": 85.31659643 },
      { "name": "Mahalaxmi Stop", "lat": 27.66159, "lon": 85.318181 },
      { "name": "Talchikhela Stop", "lat": 27.65932183, "lon": 85.32110305 },
      { "name": "Tikabhairav", "lat": 27.65807135, "lon": 85.3228192 },
      {
        "name": "Satobato Stop (Lagankhel)",
        "lat": 27.658542,
        "lon": 85.324158
      },
      {
        "name": "Patan Industry Stop (Lagankhel)",
        "lat": 27.66247727,
        "lon": 85.32384489
      },
      { "name": "Lagankhel", "lat": 27.66729968, "lon": 85.3231659 },
      {
        "name": "Patan Industry Stop (Satobato)",
        "lat": 27.66248286,
        "lon": 85.32403595
      },
      { "name": "Sato Bato Bus Stand", "lat": 27.65913922, "lon": 85.32513261 },
      { "name": "Badigram Bus Stop", "lat": 27.66206376, "lon": 85.32817758 },
      { "name": "B and B Bus Stop", "lat": 27.66449353, "lon": 85.33018964 },
      { "name": "Gwarko Bus Stop", "lat": 27.66685747, "lon": 85.33210517 },
      { "name": "Khari Boat Bus Stop", "lat": 27.67032986, "lon": 85.33800482 },
      { "name": "Balkumari Bus Stop", "lat": 27.67165284, "lon": 85.34019028 },
      { "name": "Balkumari Bus Stand", "lat": 27.67392542, "lon": 85.34247896 },
      { "name": "Koteshwor Bus Stand", "lat": 27.67988404, "lon": 85.3494561 },
      {
        "name": "Sinamangal Bus Stand",
        "lat": 27.69532942,
        "lon": 85.35496366
      },
      { "name": "Bimansthal Stop", "lat": 27.70103531, "lon": 85.35338561 },
      { "name": "Gaushala Bus Stop", "lat": 27.70744278, "lon": 85.34386185 },
      { "name": "Jay Bageshwari Stop", "lat": 27.71051448, "lon": 85.34422342 },
      { "name": "Mitrapark Stand", "lat": 27.71326775, "lon": 85.34544178 },
      { "name": "Chabahil", "lat": 27.71683269, "lon": 85.34640348 },
      { "name": "Chabahil Bus Stand", "lat": 27.71746188, "lon": 85.34655954 }
    ]
  },
  {
    "routeNumber": 5,
    "name": "Kalanki to Ratnapark",
    "color": "brown",
    "stops": [
      { "name": "Kalanki", "lat": 27.69319531, "lon": 85.28061859 },
      { "name": "Soltimod", "lat": 27.69670557, "lon": 85.29358539 },
      {
        "name": "Kalimati (Vegetable Market)",
        "lat": 27.69841335,
        "lon": 85.29935658
      },
      { "name": "Teku Stop", "lat": 27.69629718, "lon": 85.30699188 },
      { "name": "Tripureshwar (RNAC)", "lat": 27.69403388, "lon": 85.31303754 },
      {
        "name": "Ratnapark",
        "lat": 27.702561742152824,
        "lon": 85.31361099960553
      },
      { "name": "Tudikhel Bus Stop", "lat": 27.70202397, "lon": 85.31654579 },
      {
        "name": "Bhirikuti Mandap Stop",
        "lat": 27.70090581,
        "lon": 85.31660836
      },
      { "name": "Sahid Gate Bus Stop", "lat": 27.69966749, "lon": 85.314113 },
      {
        "name": "Tripureshwar Bus Stop",
        "lat": 27.6938922,
        "lon": 85.31299833
      },
      { "name": "Teku Bus Stop", "lat": 27.69615485, "lon": 85.30688154 },
      {
        "name": "Kalimati Bus Stop (Kalanki)",
        "lat": 27.69821731,
        "lon": 85.29894525
      },
      { "name": "Soltimod (Kalanki)", "lat": 27.69645154, "lon": 85.29347021 },
      {
        "name": "Kalanki (Global IME)",
        "lat": 27.69338329,
        "lon": 85.28218439
      },
      { "name": "Kalanki", "lat": 27.69319531, "lon": 85.28061859 }
    ]
  },
  {
    "routeNumber": 6,
    "name": "Ratnapark to Ekantakuna to Kalanki Long Route",
    "color": "pink",
    "stops": [
      {
        "name": "Ratnapark",
        "lat": 27.702561742152824,
        "lon": 85.31361099960553
      },
      { "name": "Tudikhel Bus Stop", "lat": 27.70202397, "lon": 85.31654579 },
      {
        "name": "Bhirikuti Mandap Stop",
        "lat": 27.70090581,
        "lon": 85.31660836
      },
      {
        "name": "Singha Durbar Bus Stop",
        "lat": 27.69743159,
        "lon": 85.32145722
      },
      {
        "name": "Putalisadak Bus Stop",
        "lat": 27.69665069,
        "lon": 85.32125097
      },
      { "name": "Mitighar Bus Stop", "lat": 27.69382748, "lon": 85.32134064 },
      {
        "name": "Babar Mahal Bus Stop",
        "lat": 27.69231276,
        "lon": 85.32465933
      },
      {
        "name": "New Baneshwor Bus Stand",
        "lat": 27.68858838,
        "lon": 85.33471354
      },
      { "name": "Minibhawan Stop", "lat": 27.68768795, "lon": 85.33898196 },
      { "name": "Tin Kune Bus Stand", "lat": 27.68621338, "lon": 85.34567774 },
      {
        "name": "Koteswor Bus Stop (Bal Kumari Bridge)",
        "lat": 27.67821423,
        "lon": 85.34890669
      },
      { "name": "Balkumari Bus Stand", "lat": 27.67139317, "lon": 85.34041152 },
      { "name": "Khariboat Bus Stand", "lat": 27.67009562, "lon": 85.33818034 },
      { "name": "Gwarko Bus Stand", "lat": 27.66636234, "lon": 85.33214606 },
      { "name": "B and B Bus Stand", "lat": 27.66421193, "lon": 85.33034287 },
      { "name": "Bodhigram Bus Stand", "lat": 27.66195902, "lon": 85.32845797 },
      {
        "name": "Satobato Stop (Ekantakuna)",
        "lat": 27.65801511,
        "lon": 85.32210245
      },
      { "name": "Tikabhairav Chowk", "lat": 27.65916143, "lon": 85.32069604 },
      { "name": "Talchikhela Chowk", "lat": 27.65915451, "lon": 85.32071347 },
      { "name": "JRC Chok", "lat": 27.66016321, "lon": 85.3196507 },
      {
        "name": "Mahalaxmi Bus Stop (Ekantakuna)",
        "lat": 27.66147417,
        "lon": 85.31792641
      },
      { "name": "Thasikhel Chowk", "lat": 27.66277965, "lon": 85.31623568 },
      {
        "name": "Kusunti Bus Stop (Sanepa)",
        "lat": 27.66427832,
        "lon": 85.31438435
      },
      {
        "name": "Ekantakuna Bus Stop (Balkhu)",
        "lat": 27.66678831,
        "lon": 85.30784892
      },
      {
        "name": "Star Hospital Bus Stop (Balkhu)",
        "lat": 27.6812033,
        "lon": 85.30209858
      },
      {
        "name": "Sanepa Bus Stop (Balkhu)",
        "lat": 27.68426962,
        "lon": 85.30127631
      },
      {
        "name": "Balkhu Bus Stop (Kalanki)",
        "lat": 27.6847635,
        "lon": 85.29700203
      },
      {
        "name": "Sita Petrol Pump Stop (Kalanki)",
        "lat": 27.688301,
        "lon": 85.28644041
      },
      { "name": "Kalanki", "lat": 27.69319531, "lon": 85.28061859 },
      {
        "name": "Kalanki Bus Stop (Kalimati)",
        "lat": 27.69345481,
        "lon": 85.28210743
      },
      { "name": "Soltimod", "lat": 27.69670557, "lon": 85.29358539 },
      {
        "name": "Kalimati (Vegetable Market)",
        "lat": 27.69841335,
        "lon": 85.29935658
      },
      { "name": "Teku Stop", "lat": 27.69629718, "lon": 85.30699188 },
      { "name": "Tripureshwar (RNAC)", "lat": 27.69403388, "lon": 85.31303754 },
      {
        "name": "Ratnapark",
        "lat": 27.702561742152824,
        "lon": 85.31361099960553
      }
    ]
  },
  {
    "routeNumber": 7,
    "name": "gongabu  to Gongabu",
    "color": "navy",
    "stops": [
      {
        "name": "Gongabu New Bus Park",
        "lat": 27.73484845,
        "lon": 85.30819588
      },
      {
        "name": "Gongabu Bus Stand (Chakrapath)",
        "lat": 27.73521528,
        "lon": 85.30835905
      },
      { "name": "Gongabu Chowk Stand", "lat": 27.73504705, "lon": 85.31485887 },
      { "name": "Samakhusi Bus Stand", "lat": 27.73524882, "lon": 85.31855417 },
      { "name": "Talim Khendra Stand", "lat": 27.73641119, "lon": 85.32231216 },
      {
        "name": "Basundhara Bus Stand",
        "lat": 27.73815083,
        "lon": 85.32517588
      },
      { "name": "Basundhara Main", "lat": 27.7422166, "lon": 85.33230493 },
      { "name": "Narayan Gopal", "lat": 27.74030331, "lon": 85.33679906 },
      { "name": "Dhumbarahi Stand", "lat": 27.73158685, "lon": 85.34460638 },
      {
        "name": "Gopi Krishna Bus Stop",
        "lat": 27.72180594,
        "lon": 85.34570658
      },
      { "name": "Chabahil Stop", "lat": 27.71694003, "lon": 85.34670778 },
      { "name": "Mitra Park Stop", "lat": 27.71332146, "lon": 85.34558723 },
      { "name": "Bageshwari Stop", "lat": 27.710407, "lon": 85.34430516 },
      { "name": "Gaushala Stop", "lat": 27.70758817, "lon": 85.34399789 },
      { "name": "Bimansthal", "lat": 27.7010368, "lon": 85.35338553 },
      { "name": "Sinamangal Bus Stop", "lat": 27.69531482, "lon": 85.35515246 },
      {
        "name": "Koteswor Bus Stop (Bal Kumari Bridge)",
        "lat": 27.67821423,
        "lon": 85.34890669
      },
      { "name": "Balkumari Bus Stand", "lat": 27.67139317, "lon": 85.34041152 },
      { "name": "Khariboat Bus Stand", "lat": 27.67009562, "lon": 85.33818034 },
      { "name": "Gwarko Bus Stand", "lat": 27.66636234, "lon": 85.33214606 },
      { "name": "B and B Bus Stand", "lat": 27.66421193, "lon": 85.33034287 },
      { "name": "Bodhigram Bus Stand", "lat": 27.66195902, "lon": 85.32845797 },
      {
        "name": "Satobato Stop (Ekantakuna)",
        "lat": 27.65801511,
        "lon": 85.32210245
      },
      { "name": "Tikabhairav Chowk", "lat": 27.65916143, "lon": 85.32069604 },
      { "name": "Talchikhela Chowk", "lat": 27.65915451, "lon": 85.32071347 },
      { "name": "JRC Chok", "lat": 27.66016321, "lon": 85.3196507 },
      {
        "name": "Mahalaxmi Bus Stop (Ekantakuna)",
        "lat": 27.66147417,
        "lon": 85.31792641
      },
      { "name": "Thasikhel Chowk", "lat": 27.66277965, "lon": 85.31623568 },
      {
        "name": "Kusunti Bus Stop (Sanepa)",
        "lat": 27.66427832,
        "lon": 85.31438435
      },
      {
        "name": "Ekantakuna Bus Stop (Balkhu)",
        "lat": 27.66678831,
        "lon": 85.30784892
      },
      {
        "name": "Star Hospital Bus Stop (Balkhu)",
        "lat": 27.6812033,
        "lon": 85.30209858
      },
      {
        "name": "Sanepa Bus Stop (Balkhu)",
        "lat": 27.68426962,
        "lon": 85.30127631
      },
      {
        "name": "Balkhu Bus Stop (Kalanki)",
        "lat": 27.6847635,
        "lon": 85.29700203
      },
      {
        "name": "Sita Petrol Pump Stop (Kalanki)",
        "lat": 27.688301,
        "lon": 85.28644041
      },
      { "name": "Kalanki (Bafal)", "lat": 27.69394974, "lon": 85.28146875 },
      { "name": "Bafal Bus Stop", "lat": 27.70199895, "lon": 85.28175819 },
      { "name": "Soaltee Dobato Chowk", "lat": 27.7045369, "lon": 85.28211905 },
      { "name": "Sano Bus Stop", "lat": 27.70783195, "lon": 85.282539 },
      {
        "name": "Swayambhu Bus Stop (Main Road)",
        "lat": 27.71664622,
        "lon": 85.2835426
      },
      { "name": "Thulo Bharyang", "lat": 27.71965556, "lon": 85.28676521 },
      {
        "name": "Sano Bharyang Bus Stand",
        "lat": 27.7207999,
        "lon": 85.28913161
      },
      {
        "name": "Dhunge Dhara Bus Stand",
        "lat": 27.72342947,
        "lon": 85.29458608
      },
      {
        "name": "Banasthali Bus Stand",
        "lat": 27.72493083,
        "lon": 85.29789729
      },
      { "name": "Balaju Bus Stand", "lat": 27.72725225, "lon": 85.30473405 },
      {
        "name": "Macha Pokhari Bus Stand",
        "lat": 27.73542791,
        "lon": 85.3059706
      },
      { "name": "Gongabu New Bus Park", "lat": 27.73484845, "lon": 85.30819588 }
    ]
  },
  {
    "routeNumber": 8,
    "name": "Ratnapark to Balaju",
    "color": "gray",
    "stops": [
      {
        "name": "Ratnapark",
        "lat": 27.702561742152824,
        "lon": 85.31361099960553
      },
      {
        "name": "Bir Hospital Bus Stand",
        "lat": 27.70588726,
        "lon": 85.31400816
      },
      {
        "name": "Kanti Path Bus Stand",
        "lat": 27.70937233,
        "lon": 85.31459606
      },
      { "name": "Laichaur Bus Stand", "lat": 27.71713509, "lon": 85.31507855 },
      { "name": "ASCOL Bus Stand", "lat": 27.71776808, "lon": 85.31312945 },
      { "name": "Thamel Bus Stand", "lat": 27.71811313, "lon": 85.31186708 },
      {
        "name": "Sorhakhutte Bus Stop",
        "lat": 27.71900361,
        "lon": 85.30951869
      },
      {
        "name": "Balaju (Lekhnath Sadak)",
        "lat": 27.72733495,
        "lon": 85.30442865
      },
      {
        "name": "Balaju Bus Stand (Nayabazar)",
        "lat": 27.72662877,
        "lon": 85.30484625
      },
      {
        "name": "Sorhakhutte Nayabazar Bus Stop",
        "lat": 27.71918345,
        "lon": 85.3096209
      },
      { "name": "Thamel Bus Stop", "lat": 27.71818055, "lon": 85.31201975 },
      {
        "name": "ASCOL (Amrit Campus)",
        "lat": 27.71786308,
        "lon": 85.31322284
      },
      { "name": "Lainchur Bus Stop", "lat": 27.71728043, "lon": 85.31517531 },
      { "name": "Kantipath Bus Stop", "lat": 27.7093247, "lon": 85.31474487 },
      { "name": "Jamal Bus Stand", "lat": 27.70884808, "lon": 85.31532319 },
      {
        "name": "Bhirikuti Mandap Stop",
        "lat": 27.70090581,
        "lon": 85.31660836
      },
      {
        "name": "Ratnapark",
        "lat": 27.702561742152824,
        "lon": 85.31361099960553
      }
    ]
  },
  {
    "routeNumber": 9,
    "name": "Gongabu and Ratnapark",
    "color": "olive",
    "stops": [
      {
        "name": "Gongabu New Bus Park",
        "lat": 27.73484845,
        "lon": 85.30819588
      },
      {
        "name": "Macha Pokhari Bus Stop",
        "lat": 27.73513802,
        "lon": 85.30598712
      },
      {
        "name": "Balaju Bus Stand (Nayabazar)",
        "lat": 27.72662877,
        "lon": 85.30484625
      },
      {
        "name": "Sorhakhutte Nayabazar Bus Stop",
        "lat": 27.71918345,
        "lon": 85.3096209
      },
      { "name": "Thamel Bus Stop", "lat": 27.71818055, "lon": 85.31201975 },
      {
        "name": "ASCOL (Amrit Campus)",
        "lat": 27.71786308,
        "lon": 85.31322284
      },
      { "name": "Lainchur Bus Stop", "lat": 27.71728043, "lon": 85.31517531 },
      { "name": "Kantipath Bus Stop", "lat": 27.7093247, "lon": 85.31474487 },
      { "name": "Jamal Bus Stand", "lat": 27.70884808, "lon": 85.31532319 },
      {
        "name": "Bhirikuti Mandap Stop",
        "lat": 27.70090581,
        "lon": 85.31660836
      },
      {
        "name": "Ratnapark",
        "lat": 27.702561742152824,
        "lon": 85.31361099960553
      },
      {
        "name": "Bir Hospital Bus Stand",
        "lat": 27.70588726,
        "lon": 85.31400816
      },
      {
        "name": "Kanti Path Bus Stand",
        "lat": 27.70937233,
        "lon": 85.31459606
      },
      { "name": "Lainchaur Bus Stand", "lat": 27.71713509, "lon": 85.31507855 },
      { "name": "ASCOL Bus Stand", "lat": 27.71776808, "lon": 85.31312945 },
      { "name": "Thamel Bus Stand", "lat": 27.71811313, "lon": 85.31186708 },
      {
        "name": "Sorhakhutte Bus Stop",
        "lat": 27.71900361,
        "lon": 85.30951869
      },
      { "name": "Balaju Bus Stand", "lat": 27.72725225, "lon": 85.30473405 },
      {
        "name": "Macha Pokhari Bus Stand",
        "lat": 27.73542791,
        "lon": 85.3059706
      },
      { "name": "Gongabu New Bus Park", "lat": 27.73484845, "lon": 85.30819588 }
    ]
  },
  {
    "routeNumber": 10,
    "name": "Patan Dhoka and Ratnapark",
    "color": "maroon",
    "stops": [
      {
        "name": "Patan Dhoka Bus Stand",
        "lat": 27.67913117,
        "lon": 85.32052705
      },
      {
        "name": "Engineering Campus Bus Stop",
        "lat": 27.682217,
        "lon": 85.31951743
      },
      { "name": "Jwagal Chok", "lat": 27.68540295, "lon": 85.31806128 },
      { "name": "Kupondol Bus Stand", "lat": 27.68779454, "lon": 85.31625199 },
      { "name": "Thapathali Bus Stop", "lat": 27.69123546, "lon": 85.31767667 },
      {
        "name": "Thapathali Campus Stop",
        "lat": 27.6933355,
        "lon": 85.3186066
      },
      {
        "name": "Ratnapark",
        "lat": 27.702561742152824,
        "lon": 85.31361099960553
      },
      {
        "name": "Bir Hospital Bus Stand",
        "lat": 27.70588726,
        "lon": 85.31400816
      },
      {
        "name": "Kanti Path Bus Stand",
        "lat": 27.70937233,
        "lon": 85.31459606
      },
      { "name": "Lazimpath Bus Stop", "lat": 27.71733641, "lon": 85.31623708 },
      {
        "name": "Narayan Hiti Palace Bus Stop",
        "lat": 27.71787649,
        "lon": 85.32272281
      },
      {
        "name": "Nag Pokhari Bus Stand",
        "lat": 27.71332107,
        "lon": 85.32361203
      },
      {
        "name": "Jai Nepal Hall Bus Stop",
        "lat": 27.71361447,
        "lon": 85.32153287
      },
      { "name": "Tudikhel Bus Stop", "lat": 27.70202397, "lon": 85.31654579 },
      {
        "name": "Bhirikuti Mandap Stop",
        "lat": 27.70090581,
        "lon": 85.31660836
      },
      {
        "name": "Thapathali Bus Stand",
        "lat": 27.69405934,
        "lon": 85.31939134
      },
      { "name": "Kupondol Bus Stop", "lat": 27.68759645, "lon": 85.31677979 },
      {
        "name": "Engineering Campus Bus Stop",
        "lat": 27.682217,
        "lon": 85.31951743
      },
      {
        "name": "Patan Dhoka Bus Stand",
        "lat": 27.67913117,
        "lon": 85.32052705
      }
    ]
  },
  {
    "routeNumber": 11,
    "name": "Narayangopal Chowk and Ratnapark",
    "color": "aqua",
    "stops": [
      { "name": "Narayangopal Chowk", "lat": 27.74036555, "lon": 85.33752075 },
      {
        "name": "Chakrapath Bus Stand",
        "lat": 27.73934072,
        "lon": 85.33662088
      },
      { "name": "Teaching Bus Stop", "lat": 27.73531592, "lon": 85.33181004 },
      { "name": "Maharajgunj Bus Stop", "lat": 27.733889, "lon": 85.33005431 },
      { "name": "Lazimpat Bus Stop", "lat": 27.72098959, "lon": 85.31994794 },
      { "name": "Kantipath Bus Stop", "lat": 27.7093247, "lon": 85.31474487 },
      { "name": "Jamal Bus Stand", "lat": 27.70884808, "lon": 85.31532319 },
      {
        "name": "Bhirikuti Mandap Stop",
        "lat": 27.70090581,
        "lon": 85.31660836
      },
      {
        "name": "Ratnapark",
        "lat": 27.702561742152824,
        "lon": 85.31361099960553
      },
      {
        "name": "Bir Hospital Bus Stand",
        "lat": 27.70588726,
        "lon": 85.31400816
      },
      {
        "name": "Kanti Path Bus Stand",
        "lat": 27.70937233,
        "lon": 85.31459606
      },
      { "name": "Lazimpath Bus Stand", "lat": 27.72105239, "lon": 85.31981178 },
      {
        "name": "Maharajgunj Bus Stand",
        "lat": 27.7341139,
        "lon": 85.33015399
      },
      { "name": "Teaching Bus Stand", "lat": 27.73543814, "lon": 85.33171873 },
      { "name": "Chakrapath Bus Stop", "lat": 27.73939687, "lon": 85.33649824 },
      { "name": "Narayan Gopal Chowk", "lat": 27.74042362, "lon": 85.33745252 },
      { "name": "Narayangopal Chowk", "lat": 27.74036555, "lon": 85.33752075 }
    ]
  },
  {
    "routeNumber": 12,
    "name": "Gongabu Bus Stand (Chakrapath) to Ratnapark",
    "color": "lime",
    "stops": [
      {
        "name": "Gongabu Bus Stand (Chakrapath)",
        "lat": 27.73521528,
        "lon": 85.30835905
      },
      { "name": "Gongabu Chowk Stand", "lat": 27.73504705, "lon": 85.31485887 },
      { "name": "Samakhusi Bus Stand", "lat": 27.73524882, "lon": 85.31855417 },
      { "name": "Talim Khendra Stand", "lat": 27.73641119, "lon": 85.32231216 },
      {
        "name": "Basundhara Bus Stand",
        "lat": 27.73815083,
        "lon": 85.32517588
      },
      { "name": "Basundhara Main", "lat": 27.7422166, "lon": 85.33230493 },
      { "name": "Narayan Gopal", "lat": 27.74030331, "lon": 85.33679906 },
      {
        "name": "Chakrapath Bus Stand",
        "lat": 27.73934072,
        "lon": 85.33662088
      },
      { "name": "Teaching Bus Stop", "lat": 27.73531592, "lon": 85.33181004 },
      { "name": "Maharajgunj Bus Stop", "lat": 27.733889, "lon": 85.33005431 },
      { "name": "Lazimpat Bus Stop", "lat": 27.72098959, "lon": 85.31994794 },
      { "name": "Kantipath Bus Stop", "lat": 27.7093247, "lon": 85.31474487 },
      { "name": "Jamal Bus Stand", "lat": 27.70884808, "lon": 85.31532319 },
      {
        "name": "Bhirikuti Mandap Stop",
        "lat": 27.70090581,
        "lon": 85.31660836
      },
      {
        "name": "Ratnapark",
        "lat": 27.702561742152824,
        "lon": 85.31361099960553
      },
      {
        "name": "Bir Hospital Bus Stand",
        "lat": 27.70588726,
        "lon": 85.31400816
      },
      {
        "name": "Kanti Path Bus Stand",
        "lat": 27.70937233,
        "lon": 85.31459606
      },
      { "name": "Lazimpath Bus Stand", "lat": 27.72105239, "lon": 85.31981178 },
      {
        "name": "Maharajgunj Bus Stand",
        "lat": 27.7341139,
        "lon": 85.33015399
      },
      { "name": "Teaching Bus Stand", "lat": 27.73543814, "lon": 85.33171873 },
      { "name": "Chakrapath Bus Stop", "lat": 27.73939687, "lon": 85.33649824 },
      {
        "name": "Narayan Gopal Bus Stop",
        "lat": 27.7400993,
        "lon": 85.33670501
      },
      { "name": "Sajha Bus Stop", "lat": 27.74190867, "lon": 85.33333677 },
      { "name": "Basundhara Bus Stop", "lat": 27.74205064, "lon": 85.3323138 },
      {
        "name": "Basundhara Chauki Bus Stop",
        "lat": 27.7379396,
        "lon": 85.32505741
      },
      {
        "name": "Taalim Kendram Bus Stop",
        "lat": 27.73609739,
        "lon": 85.32201583
      },
      { "name": "Samakhusi Bus Stop", "lat": 27.73506556, "lon": 85.31815295 },
      { "name": "Gongabu Bus Stop", "lat": 27.734882, "lon": 85.3145742 },
      {
        "name": "Gongabu New Bus Park",
        "lat": 27.73484845,
        "lon": 85.30819588
      },
      {
        "name": "Gongabu Bus Stand (Chakrapath)",
        "lat": 27.73521528,
        "lon": 85.30835905
      }
    ]
  },
  {
    "routeNumber": 13,
    "name": "Ratnapark to Gongabu",
    "color": "darkblue",
    "stops": [
      {
        "name": "Ratnapark",
        "lat": 27.702561742152824,
        "lon": 85.31361099960553
      },
      { "name": "Tudikhel Bus Stop", "lat": 27.70202397, "lon": 85.31654579 },
      {
        "name": "Bhirikuti Mandap Stop",
        "lat": 27.70090581,
        "lon": 85.31660836
      },
      {
        "name": "Singha Durbar Bus Stop",
        "lat": 27.69743159,
        "lon": 85.32145722
      },
      {
        "name": "Putalisadak Bus Stop",
        "lat": 27.69665069,
        "lon": 85.32125097
      },
      { "name": "Mitighar Bus Stop", "lat": 27.69382748, "lon": 85.32134064 },
      {
        "name": "Babar Mahal Bus Stop",
        "lat": 27.69231276,
        "lon": 85.32465933
      },
      {
        "name": "New Baneshwor Bus Stand",
        "lat": 27.68858838,
        "lon": 85.33471354
      },
      { "name": "Minibhawan Stop", "lat": 27.68768795, "lon": 85.33898196 },
      { "name": "Tin Kune Bus Stand", "lat": 27.68621338, "lon": 85.34567774 },
      {
        "name": "Sinamangal Bus Stand",
        "lat": 27.69532942,
        "lon": 85.35496366
      },
      { "name": "Bimansthal Stop", "lat": 27.70103531, "lon": 85.35338561 },
      { "name": "Gaushala Bus Stop", "lat": 27.70744278, "lon": 85.34386185 },
      { "name": "Jay Bageshwari Stop", "lat": 27.71051448, "lon": 85.34422342 },
      { "name": "Mitrapark Stand", "lat": 27.71326775, "lon": 85.34544178 },
      { "name": "Chabahil Bus Stand", "lat": 27.71746188, "lon": 85.34655954 },
      { "name": "Dhumbahari Bus Stop", "lat": 27.73196399, "lon": 85.34405293 },
      {
        "name": "Chapal Karkhana Bus Stop",
        "lat": 27.73464331,
        "lon": 85.34240091
      },
      {
        "name": "Narayan Gopal Bus Stop",
        "lat": 27.7400993,
        "lon": 85.33670501
      },
      { "name": "Sajha Bus Stop", "lat": 27.74190867, "lon": 85.33333677 },
      { "name": "Basundhara Bus Stop", "lat": 27.74205064, "lon": 85.3323138 },
      {
        "name": "Basundhara Chauki Bus Stop",
        "lat": 27.7379396,
        "lon": 85.32505741
      },
      {
        "name": "Taalim Kendram Bus Stop",
        "lat": 27.73609739,
        "lon": 85.32201583
      },
      { "name": "Samakhusi Bus Stop", "lat": 27.73506556, "lon": 85.31815295 },
      { "name": "Gongabu Bus Stop", "lat": 27.734882, "lon": 85.3145742 },
      {
        "name": "Gongabu New Bus Park",
        "lat": 27.73484845,
        "lon": 85.30819588
      },
      {
        "name": "Gongabu Bus Stand (Chakrapath)",
        "lat": 27.73521528,
        "lon": 85.30835905
      },
      { "name": "Gongabu Chowk Stand", "lat": 27.73504705, "lon": 85.31485887 },
      { "name": "Samakhusi Bus Stand", "lat": 27.73524882, "lon": 85.31855417 },
      { "name": "Talim Khendra Stand", "lat": 27.73641119, "lon": 85.32231216 },
      {
        "name": "Basundhara Bus Stand",
        "lat": 27.73815083,
        "lon": 85.32517588
      },
      { "name": "Basundhara Main", "lat": 27.7422166, "lon": 85.33230493 },
      { "name": "Narayan Gopal", "lat": 27.74030331, "lon": 85.33679906 },
      { "name": "Dhumbarahi Stand", "lat": 27.73158685, "lon": 85.34460638 },
      {
        "name": "Gopi Krishna Bus Stop",
        "lat": 27.72180594,
        "lon": 85.34570658
      },
      { "name": "Chabahil Stop", "lat": 27.71694003, "lon": 85.34670778 },
      { "name": "Mitra Park Stop", "lat": 27.71332146, "lon": 85.34558723 },
      { "name": "Bageshwari Stop", "lat": 27.710407, "lon": 85.34430516 },
      { "name": "Gaushala Stop", "lat": 27.70758817, "lon": 85.34399789 },
      { "name": "Bimansthal", "lat": 27.7010368, "lon": 85.35338553 },
      { "name": "Sinamangal Bus Stop", "lat": 27.69531482, "lon": 85.35515246 },
      {
        "name": "Tin Kune Madanbhandari",
        "lat": 27.68588261,
        "lon": 85.34560775
      },
      { "name": "Min Bhawan Bus Stop", "lat": 27.68739459, "lon": 85.33861347 },
      {
        "name": "New Baneshwor Bus Stop",
        "lat": 27.68790483,
        "lon": 85.33635658
      },
      {
        "name": "Babar Mahal Bus Stand",
        "lat": 27.69206985,
        "lon": 85.3244531
      },
      { "name": "Maitighar Bus Stand", "lat": 27.69351677, "lon": 85.32135013 },
      {
        "name": "Putalisakad Bus Stand",
        "lat": 27.69668484,
        "lon": 85.3210831
      },
      {
        "name": "Singha Durbar Bus Stand",
        "lat": 27.69745072,
        "lon": 85.32126599
      },
      {
        "name": "Ratnapark",
        "lat": 27.702561742152824,
        "lon": 85.31361099960553
      }
    ]
  },
  {
    "routeNumber": 14,
    "name": "Bhirikuti Mandap Stop and Sinamangal",
    "color": "darkred",
    "stops": [
      {
        "name": "Bhirikuti Mandap Stop",
        "lat": 27.70090581,
        "lon": 85.31660836
      },
      {
        "name": "Singha Durbar Bus Stop",
        "lat": 27.69743159,
        "lon": 85.32145722
      },
      {
        "name": "Putalisadak Bus Stop",
        "lat": 27.69665069,
        "lon": 85.32125097
      },
      { "name": "Mitighar Bus Stop", "lat": 27.69382748, "lon": 85.32134064 },
      {
        "name": "Babar Mahal Bus Stop",
        "lat": 27.69231276,
        "lon": 85.32465933
      },
      {
        "name": "New Baneshwor Bus Stand",
        "lat": 27.68858838,
        "lon": 85.33471354
      },
      { "name": "Minibhawan Stop", "lat": 27.68768795, "lon": 85.33898196 },
      { "name": "Tin Kune Bus Stand", "lat": 27.68621338, "lon": 85.34567774 },
      {
        "name": "Sinamangal Bus Stand",
        "lat": 27.69532942,
        "lon": 85.35496366
      },
      {
        "name": "Tarahal Chowk Bus Stop",
        "lat": 27.69709896,
        "lon": 85.35042935
      },
      { "name": "Seto Pool", "lat": 27.70288709, "lon": 85.33574085 },
      { "name": "Maitidevi Chowk", "lat": 27.70393918, "lon": 85.33245539 },
      {
        "name": "Dilibazar Pipal Ko Bot",
        "lat": 27.70495857,
        "lon": 85.32913971
      },
      { "name": "Putalisadak", "lat": 27.70562147, "lon": 85.32269315 },
      {
        "name": "Bhaktapur Mini Bus Park",
        "lat": 27.70592398,
        "lon": 85.31708699
      },
      { "name": "Tudikhel Bus Stop", "lat": 27.70202397, "lon": 85.31654579 },
      {
        "name": "Bhirikuti Mandap Stop",
        "lat": 27.70090581,
        "lon": 85.31660836
      }
    ]
  },
  {
    "routeNumber": 15,
    "name": "Balkhu to Koteshwor",
    "color": "gold",
    "stops": [
      { "name": "Balkhu Stop", "lat": 27.684794, "lon": 85.296967 },
      {
        "name": "Sanepa Bus Stop (Chakrapath)",
        "lat": 27.68440202,
        "lon": 85.30191732
      },
      {
        "name": "Star Hospital Bus Stop (Ekantakuna)",
        "lat": 27.68119825,
        "lon": 85.30249048
      },
      {
        "name": "Ekantakuna Bus Stop (Kusunti)",
        "lat": 27.66803668,
        "lon": 85.30720186
      },
      {
        "name": "Jawalakhel Bus Stand",
        "lat": 27.67251167,
        "lon": 85.31296692
      },
      { "name": "Pulchowk", "lat": 27.67677776, "lon": 85.31617183 },
      { "name": "Harihar Bhawan Stop", "lat": 27.68107181, "lon": 85.31740519 },
      { "name": "Jwagal Chok", "lat": 27.68540295, "lon": 85.31806128 },
      { "name": "Kupondol Bus Stand", "lat": 27.68779454, "lon": 85.31625199 },
      { "name": "Thapathali Bus Stop", "lat": 27.69123546, "lon": 85.31767667 },
      {
        "name": "Thapathali Campus Stop",
        "lat": 27.6933355,
        "lon": 85.3186066
      },
      { "name": "Mitighar Bus Stop", "lat": 27.69382748, "lon": 85.32134064 },
      {
        "name": "Babar Mahal Bus Stop",
        "lat": 27.69231276,
        "lon": 85.32465933
      },
      {
        "name": "New Baneshwor Bus Stand",
        "lat": 27.68858838,
        "lon": 85.33471354
      },
      { "name": "Minibhawan Stop", "lat": 27.68768795, "lon": 85.33898196 },
      { "name": "Tin Kune Bus Stand", "lat": 27.68621338, "lon": 85.34567774 },
      {
        "name": "Koteswor Bus Stop (Bal Kumari Bridge)",
        "lat": 27.67821423,
        "lon": 85.34890669
      },
      {
        "name": "Tin Kune Madanbhandari",
        "lat": 27.68588261,
        "lon": 85.34560775
      },
      { "name": "Min Bhawan Bus Stop", "lat": 27.68739459, "lon": 85.33861347 },
      {
        "name": "New Baneshwor Bus Stop",
        "lat": 27.68790483,
        "lon": 85.33635658
      },
      {
        "name": "Babar Mahal Bus Stand",
        "lat": 27.69206985,
        "lon": 85.3244531
      },
      { "name": "Maitighar Bus Stand", "lat": 27.69351677, "lon": 85.32135013 },
      {
        "name": "Thapathali Bus Stand",
        "lat": 27.69405934,
        "lon": 85.31939134
      },
      {
        "name": "Tripureshwar Bus Stop",
        "lat": 27.6938922,
        "lon": 85.31299833
      },
      { "name": "Teku Bus Stop", "lat": 27.69615485, "lon": 85.30688154 },
      {
        "name": "Kalimati Bus Stop (Balkhu)",
        "lat": 27.69826685,
        "lon": 85.29961261
      },
      { "name": "Balkhu Stop", "lat": 27.684794, "lon": 85.296967 }
    ]
  },
  {
    "routeNumber": 16,
    "name": "Lagankhel to Ratnapark",
    "color": "violet",
    "stops": [
      { "name": "Lagankhel", "lat": 27.66729968, "lon": 85.3231659 },
      {
        "name": "Patan Hospital Bus Stop",
        "lat": 27.66853816,
        "lon": 85.32165737
      },
      { "name": "Kumaripati Agnishal", "lat": 27.67055165, "lon": 85.32038421 },
      { "name": "Manbhawan Bus Stop", "lat": 27.67203029, "lon": 85.31593556 },
      { "name": "Jawalakhel Bus Stop", "lat": 27.67244164, "lon": 85.31443321 },
      { "name": "Pulchowk", "lat": 27.67677776, "lon": 85.31617183 },
      { "name": "Harihar Bhawan Stop", "lat": 27.68107181, "lon": 85.31740519 },
      { "name": "Jwagal Chok", "lat": 27.68540295, "lon": 85.31806128 },
      { "name": "Kupondol Bus Stand", "lat": 27.68779454, "lon": 85.31625199 },
      { "name": "Thapathali Bus Stop", "lat": 27.69123546, "lon": 85.31767667 },
      {
        "name": "Thapathali Campus Stop",
        "lat": 27.6933355,
        "lon": 85.3186066
      },
      {
        "name": "Singha Durbar Bus Stand",
        "lat": 27.69745072,
        "lon": 85.32126599
      },
      {
        "name": "Ratnapark",
        "lat": 27.702561742152824,
        "lon": 85.31361099960553
      },
      { "name": "Jamal Bus Stand", "lat": 27.70884808, "lon": 85.31532319 },
      { "name": "Tudikhel Bus Stop", "lat": 27.70202397, "lon": 85.31654579 },
      {
        "name": "Bhirikuti Mandap Stop",
        "lat": 27.70090581,
        "lon": 85.31660836
      },
      {
        "name": "Singha Durbar Bus Stop",
        "lat": 27.69743159,
        "lon": 85.32145722
      },
      {
        "name": "Thapathali Bus Stand",
        "lat": 27.69405934,
        "lon": 85.31939134
      },
      { "name": "Kupondol Bus Stop", "lat": 27.68760532, "lon": 85.31676665 },
      { "name": "Jwagal Stop", "lat": 27.68544375, "lon": 85.31824575 },
      {
        "name": "Harihar Bhawan Stand",
        "lat": 27.68101323,
        "lon": 85.31764796
      },
      { "name": "Pulchowk Stop", "lat": 27.67678656, "lon": 85.31617751 },
      { "name": "Jawalakhel", "lat": 27.67245881, "lon": 85.31446196 },
      {
        "name": "Kumaripati Agnishal Stop",
        "lat": 27.67066535,
        "lon": 85.32048782
      },
      {
        "name": "Patan Hospital Bus Stand",
        "lat": 27.66833775,
        "lon": 85.32176205
      },
      { "name": "Lagankhel", "lat": 27.66729968, "lon": 85.3231659 }
    ]
  },

  {
    "routeNumber": 17,
    "name": "Ratnapark to Chabahil (Alt)",
    "color": "crimson",
    "stops": [
      {
        "name": "Ratnapark",
        "lat": 27.702561742152824,
        "lon": 85.31361099960553
      },
      { "name": "Tudikhel Bus Stop", "lat": 27.70202397, "lon": 85.31654579 },
      {
        "name": "Bhirikuti Mandap Stop",
        "lat": 27.70090581,
        "lon": 85.31660836
      },
      {
        "name": "Singha Durbar Bus Stop",
        "lat": 27.69743159,
        "lon": 85.32145722
      },
      {
        "name": "Putalisadak Bus Stop",
        "lat": 27.69665069,
        "lon": 85.32125097
      },
      { "name": "Mitighar Bus Stop", "lat": 27.69382748, "lon": 85.32134064 },
      {
        "name": "Babar Mahal Bus Stop",
        "lat": 27.69231276,
        "lon": 85.32465933
      },
      {
        "name": "New Baneshwor Bus Stand",
        "lat": 27.68858838,
        "lon": 85.33471354
      },
      { "name": "Minibhawan Stop", "lat": 27.68768795, "lon": 85.33898196 },
      { "name": "Tin Kune Bus Stand", "lat": 27.68621338, "lon": 85.34567774 },
      {
        "name": "Sinamangal Bus Stand",
        "lat": 27.69532942,
        "lon": 85.35496366
      },
      { "name": "Bimansthal Stop", "lat": 27.70103531, "lon": 85.35338561 },
      { "name": "Gaushala Bus Stop", "lat": 27.70744278, "lon": 85.34386185 },
      { "name": "Jay Bageshwari Stop", "lat": 27.71051448, "lon": 85.34422342 },
      { "name": "Mitrapark Stand", "lat": 27.71326775, "lon": 85.34544178 },
      { "name": "Chabahil", "lat": 27.71683269, "lon": 85.34640348 },
      { "name": "Chabahil Stop", "lat": 27.71694003, "lon": 85.34670778 },
      { "name": "Mitra Park Stop", "lat": 27.71332146, "lon": 85.34558723 },
      { "name": "Bageshwari Stop", "lat": 27.710407, "lon": 85.34430516 },
      {
        "name": "Gaushala (Battisputali)",
        "lat": 27.70743258,
        "lon": 85.34323977
      },
      { "name": "New Baneshwor", "lat": 27.69035669, "lon": 85.33608851 },
      {
        "name": "New Baneshwor Near Pool",
        "lat": 27.68838863,
        "lon": 85.33467192
      },
      {
        "name": "Babar Mahal Bus Stand",
        "lat": 27.69206985,
        "lon": 85.3244531
      },
      { "name": "Maitighar Bus Stand", "lat": 27.69351677, "lon": 85.32135013 },
      {
        "name": "Putalisakad Bus Stand",
        "lat": 27.69668484,
        "lon": 85.32108318
      },
      {
        "name": "Singha Durbar Bus Stand",
        "lat": 27.69745072,
        "lon": 85.32126599
      },
      {
        "name": "Ratnapark",
        "lat": 27.702561742152824,
        "lon": 85.31361099960553
      }
    ]
  },
  {
    "routeNumber": 18,
    "name": "Gongabu to RNAC Direct",
    "color": "mediumvioletred",
    "stops": [
      {
        "name": "Gongabu New Bus Park",
        "lat": 27.73484845,
        "lon": 85.30819588
      },
      {
        "name": "Macha Pokhari Bus Stop",
        "lat": 27.73513802,
        "lon": 85.30598712
      },
      { "name": "Balaju Bus Stop", "lat": 27.72729611, "lon": 85.30502877 },
      { "name": "Banasthali Bus Stop", "lat": 27.7248724, "lon": 85.29827382 },
      {
        "name": "Dhungedhara Bus Stop",
        "lat": 27.72330157,
        "lon": 85.29464409
      },
      {
        "name": "Sano Bharyang Bus Stop",
        "lat": 27.72064103,
        "lon": 85.2891391
      },
      { "name": "Swayambu Bus Stop", "lat": 27.71663074, "lon": 85.28370899 },
      { "name": "Swayambu Bus Stop", "lat": 27.71663074, "lon": 85.28370899 },
      {
        "name": "Sano Bus Stop (Global IME)",
        "lat": 27.70734452,
        "lon": 85.28262391
      },
      {
        "name": "Soaltee Dobato Bus Stop",
        "lat": 27.70433267,
        "lon": 85.2822554
      },
      {
        "name": "Bafal Bus Stop (Bearhardth)",
        "lat": 27.7013995,
        "lon": 85.28193192
      },
      {
        "name": "Kalanki Bus Stop (Kalimati)",
        "lat": 27.69345481,
        "lon": 85.28210743
      },
      { "name": "Soltimod", "lat": 27.69670557, "lon": 85.29358539 },
      {
        "name": "Kalimati (Vegetable Market)",
        "lat": 27.69841335,
        "lon": 85.29935658
      },
      { "name": "Teku Stop", "lat": 27.69629718, "lon": 85.30699188 },
      { "name": "Tripureshwar (RNAC)", "lat": 27.69403388, "lon": 85.31303754 },
      {
        "name": "Ratnapark",
        "lat": 27.702561742152824,
        "lon": 85.31361099960553
      },
      { "name": "Tudikhel Bus Stop", "lat": 27.70202397, "lon": 85.31654579 },
      {
        "name": "Bhirikuti Mandap Stop",
        "lat": 27.70090581,
        "lon": 85.31660836
      },
      { "name": "Sahid Gate Bus Stop", "lat": 27.69966749, "lon": 85.314113 },
      {
        "name": "Tripureshwar Bus Stop",
        "lat": 27.6938922,
        "lon": 85.31299833
      },
      { "name": "Teku Bus Stop", "lat": 27.69615485, "lon": 85.30688154 },
      {
        "name": "Kalimati Bus Stop (Kalanki)",
        "lat": 27.69821731,
        "lon": 85.29894525
      },
      { "name": "Soltimod (Kalanki)", "lat": 27.69645154, "lon": 85.29347021 },
      {
        "name": "Kalanki (Global IME)",
        "lat": 27.69338329,
        "lon": 85.28218439
      },
      { "name": "Kalanki (Bafal)", "lat": 27.69394974, "lon": 85.28146875 },
      { "name": "Bafal Bus Stop", "lat": 27.70199895, "lon": 85.28175819 },
      { "name": "Soaltee Dobato Chowk", "lat": 27.7045369, "lon": 85.28211905 },
      { "name": "Sano Bus Stop", "lat": 27.70783195, "lon": 85.282539 },
      {
        "name": "Swayambhu Bus Stop (Main Road)",
        "lat": 27.71664622,
        "lon": 85.2835426
      },
      { "name": "Thulo Bharyang", "lat": 27.71965556, "lon": 85.28676521 },
      {
        "name": "Sano Bharyang Bus Stand",
        "lat": 27.7207999,
        "lon": 85.28913161
      },
      {
        "name": "Dhunge Dhara Bus Stand",
        "lat": 27.72342947,
        "lon": 85.29458608
      },
      {
        "name": "Banasthali Bus Stand",
        "lat": 27.72493083,
        "lon": 85.29789729
      },
      { "name": "Balaju Bus Stand", "lat": 27.72725225, "lon": 85.30473405 },
      {
        "name": "Macha Pokhari Bus Stand",
        "lat": 27.73542791,
        "lon": 85.3059706
      },
      { "name": "Gongabu New Bus Park", "lat": 27.73484845, "lon": 85.30819588 }
    ]
  },
  {
    "routeNumber": 19,
    "name": "Gongabu Bus Stand (Chakrapath) to Ratnapark (via Chabahil)",
    "color": "darkcyan",
    "stops": [
      {
        "name": "Gongabu Bus Stand (Chakrapath)",
        "lat": 27.73521528,
        "lon": 85.30835905
      },
      { "name": "Gongabu Chowk Stand", "lat": 27.73504705, "lon": 85.31485887 },
      { "name": "Samakhusi Bus Stand", "lat": 27.73524882, "lon": 85.31855417 },
      { "name": "Talim Khendra Stand", "lat": 27.73641119, "lon": 85.32231216 },
      {
        "name": "Basundhara Bus Stand",
        "lat": 27.73815083,
        "lon": 85.32517588
      },
      { "name": "Basundhara Main", "lat": 27.7422166, "lon": 85.33230493 },
      { "name": "Narayan Gopal", "lat": 27.74030331, "lon": 85.33679906 },
      { "name": "Dhumbarahi Stand", "lat": 27.73158685, "lon": 85.34460638 },
      {
        "name": "Gopi Krishna Bus Stop",
        "lat": 27.72180594,
        "lon": 85.34570658
      },
      { "name": "Chabahil Stop", "lat": 27.71694003, "lon": 85.34670778 },
      { "name": "Mitra Park Stop", "lat": 27.71332146, "lon": 85.34558723 },
      { "name": "Bageshwari Stop", "lat": 27.710407, "lon": 85.34430516 },
      { "name": "Gaushala Stop", "lat": 27.70758817, "lon": 85.34399789 },
      { "name": "Bimansthal", "lat": 27.7010368, "lon": 85.35338553 },
      { "name": "Sinamangal Bus Stop", "lat": 27.69531482, "lon": 85.35515246 },
      {
        "name": "Tin Kune Madanbhandari",
        "lat": 27.68588261,
        "lon": 85.34560775
      },
      { "name": "Min Bhawan Bus Stop", "lat": 27.68739459, "lon": 85.33861347 },
      {
        "name": "New Baneshwor Bus Stop",
        "lat": 27.68790483,
        "lon": 85.33635658
      },
      {
        "name": "Babar Mahal Bus Stand",
        "lat": 27.69206985,
        "lon": 85.3244531
      },
      { "name": "Maitighar Bus Stand", "lat": 27.69351677, "lon": 85.32135013 },
      {
        "name": "Putalisakad Bus Stand",
        "lat": 27.69668484,
        "lon": 85.32108318
      },
      {
        "name": "Singha Durbar Bus Stand",
        "lat": 27.69745072,
        "lon": 85.32126599
      },
      {
        "name": "Ratnapark",
        "lat": 27.702561742152824,
        "lon": 85.31361099960553
      },
      { "name": "Tudikhel Bus Stop", "lat": 27.70202397, "lon": 85.31654579 },
      {
        "name": "Bhirikuti Mandap Stop",
        "lat": 27.70090581,
        "lon": 85.31660836
      },
      {
        "name": "Singha Durbar Bus Stop",
        "lat": 27.69743159,
        "lon": 85.32145722
      },
      {
        "name": "Putalisadak Bus Stop",
        "lat": 27.69665069,
        "lon": 85.32125097
      },
      { "name": "Mitighar Bus Stop", "lat": 27.69382748, "lon": 85.32134064 },
      {
        "name": "Babar Mahal Bus Stop",
        "lat": 27.69231276,
        "lon": 85.32465933
      },
      {
        "name": "New Baneshwor Bus Stand",
        "lat": 27.68858838,
        "lon": 85.33471354
      },
      { "name": "Minibhawan Stop", "lat": 27.68768795, "lon": 85.33898196 },
      { "name": "Tin Kune Bus Stand", "lat": 27.68621338, "lon": 85.34567774 },
      {
        "name": "Sinamangal Bus Stand",
        "lat": 27.69532942,
        "lon": 85.35496366
      },
      { "name": "Bimansthal Stop", "lat": 27.70103531, "lon": 85.35338561 },
      { "name": "Gaushala Bus Stop", "lat": 27.70744278, "lon": 85.34386185 },
      { "name": "Jay Bageshwari Stop", "lat": 27.71051448, "lon": 85.34422342 },
      { "name": "Mitrapark Stand", "lat": 27.71326775, "lon": 85.34544178 },
      { "name": "Chabahil Bus Stand", "lat": 27.71746188, "lon": 85.34655954 },
      { "name": "Dhumbahari Bus Stop", "lat": 27.73196399, "lon": 85.34405293 },
      {
        "name": "Chapal Karkhana Bus Stop",
        "lat": 27.73464331,
        "lon": 85.34240091
      },
      {
        "name": "Narayan Gopal Bus Stop",
        "lat": 27.7400993,
        "lon": 85.33670501
      },
      { "name": "Sajha Bus Stop", "lat": 27.74190867, "lon": 85.33333677 },
      { "name": "Basundhara Bus Stop", "lat": 27.74205064, "lon": 85.3323138 },
      {
        "name": "Basundhara Chauki Bus Stop",
        "lat": 27.7379396,
        "lon": 85.32505741
      },
      {
        "name": "Taalim Kendram Bus Stop",
        "lat": 27.73609739,
        "lon": 85.32201583
      },
      { "name": "Samakhusi Bus Stop", "lat": 27.73506556, "lon": 85.31815295 },
      { "name": "Gongabu Bus Stop", "lat": 27.734882, "lon": 85.3145742 },
      {
        "name": "Gongabu New Bus Park",
        "lat": 27.73484845,
        "lon": 85.30819588
      },
      {
        "name": "Gongabu Bus Stand (Chakrapath)",
        "lat": 27.73521528,
        "lon": 85.30835905
      }
    ]
  }
]
