Name	Latitude	Longitude
Kalanki Stop	27.6932356	85.28117994
Sita Petrol Pump Stop (Balkhu)	27.688497	85.2868416
Balkhu Bus Stop (Sanepa)	27.68489845	85.29861065
Sanepa Bus Stop (Chakrapath)	27.68440202	85.30191732
Star Hospital Bus Stop (Ekantakuna)	27.68119825	85.30249048
Ekantakuna Bus Stop (Kusunti)	27.66803668	85.30720186
Kusunti Bus Stop	27.66541125	85.31323568
Thasikhel Stop	27.66295649	85.31659643
Mahalaxmi Stop	27.661590	85.318181
Talchikhela Stop	27.65932183	85.32110305
Tikabhairav	27.65807135	85.3228192
Satobato Stop (Lagankhel)	27.65863061	85.32416949
Patan Industry Stop (Lagankhel)	27.66247727	85.32384489
Lagankhel	27.66729968	85.3231659
Ratnapark	27.702561742152824	85.31361099960553
Tudikhel Bus Stop	27.70202397	85.31654579
Bhirikuti Mandap Stop	27.70090581	85.31660836
Sahid Gate Bus Stop	27.69966749	85.314113
Tripureshwar Bus Stop	27.6938922	85.31299833
Teku Bus Stop	27.69615485	85.30688154
Kalimati Bus Stop (Balkhu)	27.69826685	85.29961261
Balkhu Stop	27.685911	85.298217
Balkhu Wari	27.68449578	85.29740378
Kumari Club (Dashinkali)	27.68213001	85.29861534
TU Gate (Dashinkali)	27.67880186	85.29728255
Nayabato (Dashinkali)	27.67603301	85.29397839
Nayabato (Kirtipur)	27.67632523	85.29353559
Ayurbedhik Hospital Stop	27.67572751	85.28716144
Tin Kune Kirtipur	27.67656224	85.28358555
Nayabazar Gate	27.67702254	85.28189095
Panga Dobato Stop	27.67463783	85.28025712
Nagau Dobato Stop	27.67482353	85.27761347
Telecome Stop	27.67584611	85.27647569
Khasi Bazar Stop	27.67748367	85.27513678
Dhalpa Chowk	27.67805296	85.27358028
Devdhoka Stop	27.68236274	85.27279479
Dev Bus Stop	27.68114377	85.27552166
Bishnudevi Hospital Bus Stop	27.68058981	85.27636313
Tin Kune (Nayabato)	27.67652259	85.28378339
Ayurbedhik Hospital (Nayabato)	27.67580912	85.28733057
Nayabato (Balkhu)	27.67640093	85.29430219
TU Gate (Balkhu)	27.67886163	85.2971644
Kumari Club (Balkhu)	27.682138	85.29846038
Balkhu Petro Stop	27.68434281	85.29732339
Sanepa Bus Stop (Chakrapath)	27.68440202	85.30191732
Star Hospital Bus Stop (Ekantakuna)	27.68119825	85.30249048
Ekantakuna Bus Stop (Kusunti)	27.66803668	85.30720186
Kusunti Bus Stop	27.66541125	85.31323568
Thasikhel Stop	27.66295649	85.31659643
Mahalaxmisthan Stop	27.661590	85.318181
Chabahil Stop	27.71694003	85.34670778
Mitra Park Stop	27.71332146	85.34558723
Bageshwari Stop	27.710407	85.34430516
Gaushala Stop	27.70758817	85.34399789
Bimansthal	27.7010368	85.35338553
Sinamangal Bus Stop	27.69531482	85.35515246
Tin Kune Madanbhandari	27.68588261	85.34560775
Min Bhawan Bus Stop	27.68739459	85.33861347
New Baneshwor Bus Stop	27.68790483	85.33635658
Babar Mahal Bus Stand	27.69206985	85.3244531
Maitighar Bus Stand	27.69351677	85.32135013
Putalisakad Bus Stand	27.69668484	85.32108318
Singha Durbar Bus Stand	27.69745072	85.32126599
Chabahil Bus Stand	27.71746188	85.34655954
Dhumbahari Bus Stop	27.73196399	85.34405293
Chapal Karkhana Bus Stop	27.73464331	85.34240091
Narayan Gopal Bus Stop	27.7400993	85.33670501
Sajha Bus Stop	27.74190867	85.33333677
Basundhara Bus Stop	27.74205064	85.3323138
Basundhara Chauki Bus Stop	27.7379396	85.32505741
Taalim Kendram Bus Stop	27.73609739	85.32201583
Samakhusi Bus Stop	27.73506556	85.31815295
Gongabu Bus Stop	27.734882	85.3145742
Gongabu New Bus Park	27.73484845	85.30819588
Swayambu Bus Stop	27.71663074	85.28370899
Sano Bus Stop	27.70734452	85.28262391
Soaltee Dobato Bus Stop	27.70433267	85.2822554
Bafal Bus Stop	27.7013995	85.28193192
Kalanki Stop	27.6932356	85.28117994
Soltimod	27.69670557	85.29358539
Kalimati (Vegetable Market)	27.69841335	85.29935658
Teku Stop	27.69629718	85.30699188
Tripureshwar (RNAC)	27.69403388	85.31303754
Kalanki	27.69319531	85.28061859
Soltimod (Kalanki)	27.69645154	85.29347021
Kalimati Bus Stop (Kalanki)	27.69821731	85.29894525
Kalanki (Global IME)	27.69338329	85.28218439
Kalanki (Bafal)	27.69394974	85.28146875
Bafal Bus Stop	27.70199895	85.28175819
Soaltee Dobato Chowk	27.7045369	85.28211905
Sano Bus Stop	27.70783195	85.282539
Swayambhu Bus Stop (Main Road)	27.71664622	85.2835426
Thulo Bharyang	27.71965556	85.28676521
Sano Bharyang Bus Stand	27.7207999	85.28913161
Dhunge Dhara Bus Stand	27.72342947	85.29458608
Banasthali Bus Stand	27.72493083	85.29789729
Balaju Bus Stand	27.72725225	85.30473405
Macha Pokhari Bus Stand	27.73542791	85.3059706
Bir Hospital Bus Stand	27.70588726	85.31400816
Kanti Path Bus Stand	27.70937233	85.31459606
Laichaur Bus Stand	27.71713509	85.31507855
ASCOL Bus Stand	27.71776808	85.31312945
Thamel Bus Stand	27.71811313	85.31186708
Sorhakhutte Bus Stop	27.71900361	85.30951869
Balaju (Lekhnath Sadak)	27.72733495	85.30442865
Macha Pokhari Bus Stop	27.73513802	85.30598712
Balaju Bus Stand (Nayabazar)	27.72662877	85.30484625
Sorhakhutte Nayabazar Bus Stop	27.71918345	85.3096209
Thamel Bus Stop	27.71818055	85.31201975
ASCOL (Amrit Campus)	27.71786308	85.31322284
Lainchur Bus Stop	27.71728043	85.31517531
Kantipath Bus Stop	27.7093247	85.31474487
Jamal Bus Stand	27.70884808	85.31532319
Patan Dhoka Bus Stand	27.67913117	85.32052705
Engineering Campus Bus Stop	27.682217	85.31951743
Jwagal Chok	27.68540295	85.31806128
Kupondol Bus Stand	27.68779454	85.31625199
Thapathali Bus Stop	27.69123546	85.31767667
Thapathali Campus Stop	27.6933355	85.3186066
Narayangopal Chowk	27.74036555	85.33752075
Chakrapath Bus Stand	27.73934072	85.33662088
Teaching Bus Stop	27.73531592	85.33181004
Maharajgunj Bus Stop	27.733889	85.33005431
Lazimpat Bus Stop	27.72098959	85.31994794
Gongabu Bus Stand (Chakrapath)	27.73521528	85.30835905
Gongabu Chowk Stand	27.73504705	85.31485887
Samakhusi Bus Stand	27.73524882	85.31855417
Talim Khendra Stand	27.73641119	85.32231216
Basundhara Bus Stand	27.73815083	85.32517588
Basundhara Main	27.7422166	85.33230493
Narayan Gopal	27.74030331	85.33679906
Dhumbarahi Stand	27.73158685	85.34460638
Gopi Krishna Bus Stop	27.72180594	85.34570658
Gaushala (Battisputali)	27.70743258	85.34323977
New Baneshwor	27.69035669	85.33608851
New Baneshwor Near Pool	27.68838863	85.33467192
Seto Pool	27.70288709	85.33574085
Maitidevi Chowk	27.70393918	85.33245539
Dilibazar Pipal Ko Bot	27.70495857	85.32913971
Dilibazar Pipal Ko Bot	27.70531072	85.32667599
Putalisadak	27.70562147	85.32269315
Bhaktapur Mini Bus Park	27.70592398	85.31708699
Koteshwor Bus Stand	27.67988404	85.3494561
Badigram Bus Stop	27.66206376	85.32817758
B and B Bus Stop	27.66449353	85.33018964
Gwarko Bus Stop	27.66685747	85.33210517
Khari Boat Bus Stop	27.67032986	85.33800482
Balkumari Bus Stop	27.67165284	85.34019028
Balkumari Bus Stand	27.67392542	85.34247896
Koteswor Bus Stop (Bal Kumari Bridge)	27.67821423	85.34890669
Harihar Bhawan Stop	27.68107181	85.31740519
Pulchowk	27.67677776	85.31617183
Kumaripati Agnishal	27.67055165	85.32038421
Manbhawan Bus Stop	27.67203029	85.31593556
Jawalakhel Bus Stop	27.67244164	85.31443321
Jawalakhel	27.67245881	85.31446196
Kumaripati Agnishal Stop	27.67066535	85.32048782
Patan Hospital Bus Stop	27.66853816	85.32165737
Patan Hospital Bus Stand	27.66833775	85.32176205
Jwagal Stop	27.68544375	85.31824575
Harihar Bhawan Stand	27.68101323	85.31764796
Pulchowk Stop	27.67678656	85.31617751
Balkhu Pari Stop	27.68517157	85.29817996
Kalimati Bus Stop (Teku)	27.69805451	85.29930602
Chabahil	27.71683269	85.34640348
Sinamangal Bus Stand	27.69532942	85.35496366
Bimansthal Stop	27.70103531	85.35338561
Gaushala Bus Stop	27.70744278	85.34386185
Jay Bageshwari Stop	27.71051448	85.34422342
Mitrapark Stand	27.71326775	85.34544178
Koteshwor Bus Stand	27.67988404	85.3494561
Tin Kune Madanbhandari	27.68588261	85.34560775
Min Bhawan Bus Stop	27.68739459	85.33861347
New Baneshwor Bus Stop	27.68790483	85.33635658
Babar Mahal Bus Stand	27.69206985	85.3244531
Maitighar Bus Stand	27.69351677	85.32135013
Thapathali Bus Stand	27.69405934	85.31939134
Tripureshwar Bus Stop	27.6938922	85.31299833
Teku Bus Stop	27.69615485	85.30688154
Kalimati Bus Stop (Balkhu)	27.69826685	85.29961261
Balkhu Stop	27.685911	85.298217
